var data = {
	"status": 'found',
	"listing": [
		{
			"id": 1,
			"longitude": -0.133737,
			"latitude": 51.52189,
			"image": "images/map-img-01.jpg",
			"location": "Old Anatomy Building, London EC1M, UK",
			"title": "Toyota Car",
			"url": "#",
			"featured": 'yes',
            "make": 'TOYOTA',
            "year":'2006',
            "milage":'254368',
			"marker": 'images/1.png',
		},
		{
			"id": 2,
			"longitude": -0.09172,
			"latitude": 51.537394,
			"image": "images/map-img-02.jpg",
			"location": "16 Rydon St, London N1 7AL, UK",
			"title": "BMW bike",
			"url": "#",
			"featured": 'no',
            "make": 'BMW',
            "year":'2006',
            "milage":'254368',
			"marker": 'images/2.png',
		},
		{
			"id": 3,
			"longitude": -0.193164,
			"latitude": 51.606746,
			"image": "images/map-img-03.jpg",
			"location": "1 Nether Cl, London N3 1AA, UK",
			"title": "Mercsdes sport car",
			"url": "#",
			"featured": 'no',
            "make": 'Mercsdes',
            "year":'2006',
            "milage":'254368',
			"marker": 'images/3.png',
		},
		{
			"id": 4,
			"longitude": -0.105253,
			"latitude": 51.556654,
			"image": "images/map-img-04.jpg",
			"location": "35-43 Elfort Rd, London N5, UK",
			"title": "yamaha 1200",
			"url": "#",
			"featured": 'yes',
            "make": 'yamaha',
            "year":'2006',
            "milage":'254368',
			"marker": 'images/4.png',
		},
		{
			"id": 5,
			"longitude": -0.093024,
			"latitude": 51.549106,
			"image": "images/map-img-05.jpg",
			"location": "107 Grosvenor Ave, Mildmay Ward, London N5 2NL, UK",
			"title": "Mistubishi luxury",
			"url": "#",
			"featured": 'yes',
            "make": 'mistubishi',
            "year":'2006',
            "milage":'254368',
			"marker": 'images/1.png',
		},
		{
			"id": 6,
			"longitude": -0.070209,
			"latitude": 51.523501,
			"image": "images/map-img-06.jpg",
			"location": "30A Cheshire St, London E2 6EH, UK",
			"title": "porsche carrera gt",
			"url": "#",
			"featured": 'no',
            "make": 'porsche',
            "year":'2006',
            "milage":'254368',
			"marker": 'images/2.png',
		},
		{
			"id": 7,
			"longitude": -0.152229,
			"latitude": 51.54427,
			"image": "images/map-img-07.jpg",
			"location": "39-41 Pratt St, London NW1, UK",
			"title": "farari luxury car",
			"url": "#",
			"featured": 'yes',
            "make": 'farari',
            "year":'2006',
            "milage":'254368',
			"marker": 'images/3.png',
		},
		{
			"id": 8,
			"longitude": -0.188085,
			"latitude": 51.49064,
			"image": "images/map-img-08.jpg",
			"location": "26E Bolton Gardens, Kensington, London SW5 0AQ, UK",
			"title": "toyota new model",
			"url": "#",
			"featured": 'yes',
            "make": 'TOYOTA',
            "year":'2006',
            "milage":'254368',
			"marker": 'images/4.png',
		},
		{
			"id": 9,
			"longitude": -0.193905,
			"latitude": 51.480298,
			"image": "images/map-img-09.jpg",
			"location": "458 Fulham Rd, Fulham, London SW10 9UZ, UK",
			"title": "honda ybr 1200",
			"url": "#",
			"featured": 'yes',
            "make": 'honda',
            "year":'2006',
            "milage":'254368',
			"marker": 'images/1.png',
		},
		{
			"id": 10,
			"longitude": -0.193905,
			"latitude": 51.480298,
			"image": "images/map-img-10.jpg",
			"location": "458 Fulham Rd, Fulham, London SW10 9UZ, UK",
			"title": "suzuki 1000cc",
			"url": "#",
			"featured": 'yes',
            "make": 'suzuki',
            "year":'2006',
            "milage":'254368',
			"marker": 'images/2.png',
		},
	]
}